District code,State,District,Longitude,Latitude,Population,Households_with_Internet,sex_ratio,literacy_rate
532,Andhra Pradesh,Adilabad,78.81321233480176,19.284513950073435,2741239,5512,100.0,54.0
553,Andhra Pradesh,Anantapur,77.4601584478577,14.312065561843148,4081148,8606,98.0,57.0
554,Andhra Pradesh,Chittoor,78.92763898886037,13.33109263067696,4174064,13763,100.0,64.0
545,Andhra Pradesh,East Godavari,82.2432074720511,16.782718320784902,5154296,22411,101.0,64.0
548,Andhra Pradesh,Guntur,80.58657614107885,15.884925767634847,4887813,19383,100.0,61.0
536,Andhra Pradesh,Hyderabad,78.46668888888888,17.38971555555556,3943323,149034,95.0,73.0
534,Andhra Pradesh,Karimnagar,79.43765428571413,18.515483193277312,3776269,8831,101.0,58.0
541,Andhra Pradesh,Khammam,80.67008643892335,17.683921325051784,2797370,8628,101.0,58.0
547,Andhra Pradesh,Krishna,81.14805061000413,16.143872753151673,4517398,30438,99.0,67.0
552,Andhra Pradesh,Kurnool,77.90086836581717,15.43759715142429,4053463,10081,99.0,52.0
538,Andhra Pradesh,Mahbubnagar,77.98933089244859,16.639546224256293,4053028,6153,98.0,48.0
535,Andhra Pradesh,Medak,78.13778901903379,17.889304978038055,3033288,8635,99.0,54.0
539,Andhra Pradesh,Nalgonda,79.16984453608244,17.113250515463907,3488809,7715,98.0,57.0
533,Andhra Pradesh,Nizamabad,78.07523490566035,18.429485849056604,2551335,5261,104.0,54.0
549,Andhra Pradesh,Prakasam,80.11665790176184,15.489039001601704,3397448,6151,98.0,56.0
542,Andhra Pradesh,Srikakulam,84.25874814010675,18.570900998697432,2703114,3988,101.0,55.0
543,Andhra Pradesh,Vizianagaram,83.45982854198873,18.28329696032972,2344474,4453,102.0,53.0
540,Andhra Pradesh,Warangal,79.87422028985509,18.01752608695651,3512576,12952,100.0,59.0
546,Andhra Pradesh,West Godavari,81.45912990654196,16.63297943925236,3936966,12050,100.0,67.0
253,Arunachal Pradesh,Changlang,96.37552644628106,27.36048479338845,148226,170,93.0,49.0
247,Arunachal Pradesh,East Kameng,93.04741486013997,27.371194055944056,78690,57,103.0,49.0
251,Arunachal Pradesh,East Siang,95.06499226006191,28.15382352941176,99214,450,98.0,63.0
256,Arunachal Pradesh,Kurung Kumey,93.24531994459834,28.04853351800553,92076,95,103.0,40.0
259,Arunachal Pradesh,Lohit,96.59670770547945,27.946785273972623,145726,312,91.0,57.0
258,Arunachal Pradesh,Lower Dibang Valley,95.76567335640142,28.32651730103806,54080,207,93.0,59.0
255,Arunachal Pradesh,Lower Subansiri,93.96226108108112,27.70849297297297,83030,381,98.0,65.0
248,Arunachal Pradesh,Papum Pare,93.54468183962264,27.273529716981127,176573,2477,98.0,69.0
245,Arunachal Pradesh,Tawang,91.82504245283016,27.680683962264148,49977,96,71.0,52.0
254,Arunachal Pradesh,Tirap,95.41470327868862,26.94406229508198,111975,98,94.0,43.0
252,Arunachal Pradesh,Upper Siang,95.00155765306124,28.8309244897959,35320,97,89.0,52.0
249,Arunachal Pradesh,Upper Subansiri,93.8991435622318,28.277196566523585,83448,139,100.0,54.0
246,Arunachal Pradesh,West Kameng,92.65015750452083,27.46486582278483,83947,202,82.0,58.0
250,Arunachal Pradesh,West Siang,94.53510344202908,28.106296920289843,112274,303,93.0,58.0
303,Assam,Barpeta,90.97912010178116,26.427872264631056,1693622,2078,95.0,53.0
319,Assam,Bongaigaon,90.6734296187684,26.45012521994133,738804,2523,97.0,59.0
316,Assam,Cachar,92.86849650455927,24.815570668693017,1736617,5316,96.0,68.0
325,Assam,Darrang,92.04141338028155,26.58463215962442,928500,1166,95.0,52.0
308,Assam,Dhemaji,94.71336908517353,27.586533438485816,686133,1192,95.0,62.0
310,Assam,Dibrugarh,95.0998282327587,27.30612284482757,1326335,8817,96.0,67.0
302,Assam,Goalpara,90.59869891598912,26.017277777777807,1008183,1364,96.0,56.0
313,Assam,Golaghat,93.82583397823468,26.377219709794485,1066888,3073,96.0,68.0
318,Assam,Hailakandi,92.59154664804475,24.457496089385486,659296,1211,95.0,62.0
312,Assam,Jorhat,94.30197722567289,26.76244824016563,1092256,5651,96.0,73.0
321,Assam,Kamrup,91.58863273972592,26.170939452054807,1517542,3109,95.0,66.0
314,Assam,Karbi Anglong,93.11536570271832,26.08966454598031,956313,1923,95.0,58.0
317,Assam,Karimganj,92.3679498575498,24.69660712250711,1228686,1933,96.0,65.0
300,Assam,Kokrajhar,90.13997470997688,26.497246635730868,887142,1218,96.0,55.0
307,Assam,Lakhimpur,94.0775949253732,27.14128805970149,1042137,1948,97.0,66.0
305,Assam,Nagaon,92.9306191144708,26.26462170626351,2823768,5121,96.0,61.0
323,Assam,Nalbari,91.40598521126763,26.46323767605632,771639,1631,95.0,69.0
306,Assam,Sonitpur,92.85197804878044,26.73514926829268,1924110,4358,96.0,58.0
309,Assam,Tinsukia,95.69055949367085,27.53549291139241,1327929,5135,95.0,60.0
209,Bihar,Araria,87.30766554934816,26.211528119180603,2811569,2561,92.0,43.0
235,Bihar,Aurangabad,84.45986024096379,24.774291867469877,2540073,2362,93.0,58.0
515,Bihar,Aurangabad,84.45986024096379,24.774291867469877,3701282,23258,92.0,68.0
235,Maharashtra,Aurangabad,75.32072196796334,20.0979228832952,2540073,2362,93.0,58.0
515,Maharashtra,Aurangabad,75.32072196796334,20.0979228832952,3701282,23258,92.0,68.0
225,Bihar,Banka,86.8664916342413,24.832355642023337,2034763,1704,91.0,47.0
222,Bihar,Begusarai,86.12560144032932,25.54302613168723,2970541,4644,89.0,52.0
224,Bihar,Bhagalpur,87.04213814229242,25.277192885375477,3037766,6764,88.0,52.0
231,Bihar,Bhojpur,84.49407803030304,25.50666439393939,2728407,3661,91.0,59.0
232,Bihar,Buxar,84.08808081760995,25.48593018867924,1706352,1784,92.0,58.0
215,Bihar,Darbhanga,85.97387352472099,26.146187719298258,3937385,6280,91.0,46.0
236,Bihar,Gaya,84.94291217765044,24.7266541547278,4391418,6856,94.0,52.0
217,Bihar,Gopalganj,84.34636127167629,26.44874364161851,2562012,3707,102.0,54.0
238,Bihar,Jamui,86.26316298200514,24.78418380462726,1760405,1839,92.0,49.0
239,Bihar,Jehanabad,84.9208124481328,25.155679045643165,1125313,1106,92.0,55.0
212,Bihar,Katihar,87.70466083591326,25.56565356037151,3071029,2941,92.0,42.0
223,Bihar,Khagaria,86.56593256351037,25.53558891454964,1666886,1580,89.0,46.0
210,Bihar,Kishanganj,87.95045007235886,26.324336758321294,1690400,1093,95.0,44.0
227,Bihar,Lakhisarai,86.12825701357468,25.183449321266963,1000912,1186,90.0,51.0
213,Bihar,Madhepura,86.8978443983403,25.77341929460581,2001762,1397,91.0,42.0
207,Bihar,Madhubani,86.16328360450552,26.41380538172716,4487379,5319,93.0,48.0
226,Bihar,Munger,86.54173672839504,25.198537962962963,1367765,2653,88.0,59.0
216,Bihar,Muzaffarpur,85.32745092024543,26.18664417177915,4801062,10290,90.0,52.0
229,Bihar,Nalanda,85.48053113772461,25.229345508982053,2877653,4156,92.0,53.0
237,Bihar,Nawada,85.61594568965519,24.825708836206903,2219146,1841,94.0,49.0
203,Bihar,Pashchim Champaran,84.30265911949685,27.16064352201258,3935042,3495,91.0,45.0
230,Bihar,Patna,85.3198433587787,25.40297114503818,5838465,40692,90.0,59.0
204,Bihar,Purba Champaran,85.00382155612242,26.68129336734693,5099371,7719,90.0,45.0
211,Bihar,Purnia,87.40447606973065,25.81714801901739,3264619,4170,92.0,41.0
234,Bihar,Rohtas,83.9350762672811,24.99170460829495,2959918,4594,92.0,61.0
214,Bihar,Saharsa,86.54670819672135,25.821270696721303,1900661,1668,91.0,42.0
221,Bihar,Samastipur,85.94833323308269,25.793205563909765,4261566,5379,91.0,50.0
219,Bihar,Saran,84.82266287425155,25.89656077844312,3951862,4509,95.0,55.0
228,Bihar,Sheikhpura,85.77839390862943,25.12472436548223,636342,631,93.0,52.0
205,Bihar,Sheohar,85.29539411764709,26.458380748663107,656246,478,89.0,43.0
206,Bihar,Sitamarhi,85.61172491289203,26.56570069686413,3423574,3460,90.0,42.0
218,Bihar,Siwan,84.33766552901022,26.1736372013652,3330464,3834,99.0,58.0
208,Bihar,Supaul,86.78496465201461,26.28157893772896,2229076,1845,93.0,46.0
220,Bihar,Vaishali,85.39247597173153,25.8134703180212,3495021,4810,89.0,55.0
55,Chandigarh,Chandigarh,76.75872465753424,30.7426,1055450,44283,82.0,76.0
414,Chhattisgarh,Bastar,81.52895126903546,19.393866751269048,1413199,1782,102.0,46.0
30,Chhattisgarh,Bilaspur,81.99770350877188,22.356942982456143,381956,1574,98.0,75.0
406,Chhattisgarh,Bilaspur,81.99770350877188,22.356942982456143,2663629,8566,97.0,60.0
30,Himachal Pradesh,Bilaspur,76.65316079295157,31.3780422907489,381956,1574,98.0,75.0
406,Himachal Pradesh,Bilaspur,76.65316079295157,31.3780422907489,2663629,8566,97.0,60.0
412,Chhattisgarh,Dhamtari,81.7569195519348,20.554912627291245,799781,1016,101.0,68.0
409,Chhattisgarh,Durg,81.33181639511197,21.194463849287164,3343872,16141,99.0,69.0
402,Chhattisgarh,Jashpur,83.8703962075848,22.77286167664669,851669,567,101.0,58.0
404,Chhattisgarh,Korba,82.57604326923074,22.491712499999995,1206640,4544,97.0,62.0
400,Chhattisgarh,Koriya,82.12515636363635,23.50412776859501,658917,1667,97.0,60.0
411,Chhattisgarh,Mahasamund,82.65925427435384,21.223727037773354,1032754,961,102.0,62.0
403,Chhattisgarh,Raigarh,83.27797698630134,22.008265068493166,1493984,3342,99.0,64.0
520,Chhattisgarh,Raigarh,83.27797698630134,22.008265068493166,2634200,38570,96.0,74.0
403,Maharashtra,Raigarh,73.0090609418579,18.453257637845976,1493984,3342,99.0,64.0
520,Maharashtra,Raigarh,73.0090609418579,18.453257637845976,2634200,38570,96.0,74.0
410,Chhattisgarh,Raipur,82.20032759615388,20.88603153846152,4063872,20261,98.0,65.0
401,Chhattisgarh,Surguja,83.23582493887531,23.32719278728607,2359886,2737,98.0,50.0
495,Daman and Diu,Daman,72.8392366071429,20.431616666666677,191173,1316,53.0,79.0
479,Daman and Diu,Junagadh,70.83985639899612,20.72568199498111,2743082,6628,95.0,67.0
479,Gujarat,Junagadh,70.54733890140345,20.929523011609785,2743082,6628,95.0,67.0
585,Goa,North Goa,73.80667997909038,15.548723418714054,818008,23440,96.0,81.0
586,Goa,South Goa,73.941792596877,15.195278658183785,640537,17624,99.0,78.0
474,Gujarat,Ahmadabad,72.23898135593227,22.605425564971743,7214225,126341,90.0,75.0
480,Gujarat,Amreli,71.43457637825426,21.04832649310872,1514190,2538,96.0,66.0
482,Gujarat,Anand,72.57782051557454,22.282718206229863,2092745,9902,92.0,74.0
469,Gujarat,Banas Kantha,71.93205252873561,24.258538965517253,3120506,3424,94.0,55.0
488,Gujarat,Bharuch,72.67326346710801,21.75787276237761,1551019,10257,93.0,72.0
481,Gujarat,Bhavnagar,72.16272632761141,21.70219390341736,2880365,7297,93.0,66.0
473,Gujarat,Gandhinagar,72.67221679790026,23.193679790026252,1391753,12107,92.0,74.0
477,Gujarat,Jamnagar,69.62062005768233,22.410600414263328,2160119,11573,94.0,65.0
468,Gujarat,Kachchh,68.82192301497916,23.48057203301311,2092371,9631,91.0,60.0
483,Gujarat,Kheda,73.018803515625,22.88765312500002,2299885,5710,94.0,72.0
471,Gujarat,Mahesana,72.45545194085031,23.529355452865065,2035064,7759,93.0,74.0
487,Gujarat,Narmada,73.68403208722742,21.70666386292833,590297,576,96.0,63.0
490,Gujarat,Navsari,72.86184869848157,20.866973318871995,1329672,6726,96.0,75.0
484,Gujarat,Panch Mahals,73.61984598290586,22.80435606837605,2390776,3456,95.0,60.0
470,Gujarat,Patan,71.75162977099237,23.80634198473284,1343734,2231,94.0,62.0
478,Gujarat,Porbandar,69.71896987722886,21.55092351651571,585449,1653,95.0,67.0
476,Gujarat,Rajkot,70.83679439383323,22.40603377715488,3804558,21785,93.0,72.0
472,Gujarat,Sabar Kantha,73.13638790459964,23.71803594548552,2428589,5262,95.0,65.0
492,Gujarat,Surat,72.93488716344339,21.25761372772093,6081322,55694,79.0,75.0
475,Gujarat,Surendranagar,71.48358740875906,22.82672007299272,1756268,2975,93.0,62.0
489,Gujarat,The Dangs,73.6883518367347,20.801633877551023,228291,137,101.0,62.0
486,Gujarat,Vadodara,73.49433010291594,22.26133739279589,4165626,53606,93.0,69.0
491,Gujarat,Valsad,72.9148584798345,20.44238231644259,1705678,11020,92.0,69.0
70,Haryana,Ambala,76.94970310734456,30.3503672316384,1128350,12899,88.0,72.0
81,Haryana,Bhiwani,76.02110225806452,28.728868064516128,1634445,5292,89.0,65.0
88,Haryana,Faridabad,77.32718536585368,28.14873109756098,1809733,43437,87.0,70.0
78,Haryana,Fatehabad,75.54608716814157,29.57298318584072,942011,3210,90.0,59.0
86,Haryana,Gurgaon,77.01935130260523,28.043894789579163,1514432,67087,85.0,73.0
80,Haryana,Hisar,75.84324682779452,29.23628731117825,1743931,10132,87.0,64.0
83,Haryana,Jhajjar,76.61137142857145,28.59651868131869,958405,5034,86.0,71.0
77,Haryana,Jind,76.29598575667653,29.45149821958457,1334152,5263,87.0,62.0
73,Haryana,Kaithal,76.37698930041155,29.96068539094649,1074304,3724,88.0,60.0
74,Haryana,Karnal,76.87488025889972,29.703200647249204,1505324,11163,89.0,65.0
72,Haryana,Kurukshetra,76.78774680306903,30.05652659846548,964655,7356,89.0,67.0
84,Haryana,Mahendragarh,76.14018072916659,28.1352161458333,922088,2624,89.0,68.0
69,Haryana,Panchkula,76.97173238095236,30.700897142857134,561293,18615,87.0,72.0
75,Haryana,Panipat,76.92895914634147,29.34352134146342,1205437,10024,86.0,65.0
85,Haryana,Rewari,76.55956007604564,28.19164714828897,900332,5121,90.0,71.0
82,Haryana,Rohtak,76.53123235294117,28.892517647058817,1061204,8482,87.0,70.0
79,Haryana,Sirsa,74.90970480225988,29.63583446327684,1295189,6287,90.0,60.0
23,Himachal Pradesh,Chamba,76.39354063116366,32.66741814595661,519080,1615,99.0,62.0
28,Himachal Pradesh,Hamirpur,76.49767088607594,31.67668481012659,454768,2521,110.0,79.0
168,Himachal Pradesh,Hamirpur,76.49767088607594,31.67668481012659,1104285,1196,86.0,59.0
28,Uttar Pradesh,Hamirpur,79.82619479768789,25.738158381502892,454768,2521,110.0,79.0
168,Uttar Pradesh,Hamirpur,79.82619479768789,25.738158381502892,1104285,1196,86.0,59.0
24,Himachal Pradesh,Kangra,76.41205910931173,32.14093603238864,1510075,8053,101.0,76.0
34,Himachal Pradesh,Kinnaur,78.51613736263741,31.60667184065933,84121,354,82.0,72.0
26,Himachal Pradesh,Kullu,77.40922649350647,31.90911922077925,437903,2623,94.0,70.0
27,Himachal Pradesh,Mandi,76.96556930693067,31.635805940594054,999777,5333,101.0,72.0
33,Himachal Pradesh,Shimla,77.62573042168668,31.155725451807253,814010,9177,92.0,75.0
32,Himachal Pradesh,Sirmaur,77.43184689507493,30.682764453961443,529855,2220,92.0,68.0
31,Himachal Pradesh,Solan,76.94442140672783,31.03864311926604,580320,5250,88.0,74.0
29,Himachal Pradesh,Una,76.18353932038836,31.58330388349513,521173,2412,98.0,77.0
16,Jammu and Kashmir,Doda,76.07163720136518,33.359614675767915,409936,596,92.0,53.0
21,Jammu and Kashmir,Jammu,74.8477520361991,32.713199095022645,1529958,19905,88.0,74.0
4,Jammu and Kashmir,Kargil,76.63675315315312,33.565994894894914,140802,235,81.0,61.0
7,Jammu and Kashmir,Kathua,75.58901398601404,32.51781678321678,616435,1443,89.0,63.0
12,Jammu and Kashmir,Pulwama,75.00921860465118,33.88414418604652,560440,1537,91.0,52.0
5,Jammu and Kashmir,Punch,74.29593161290322,33.791241290322574,476835,346,89.0,55.0
10,Jammu and Kashmir,Srinagar,75.11021159420288,34.27312898550724,1236829,16413,90.0,61.0
19,Jammu and Kashmir,Udhampur,75.15286951219511,33.04770670731707,554985,1214,87.0,58.0
355,Jharkhand,Bokaro,85.98398374125864,23.6814965034965,2062330,9754,92.0,62.0
347,Jharkhand,Chatra,84.93295804701627,24.11619945750453,1042886,590,95.0,49.0
350,Jharkhand,Deoghar,86.75697632241814,24.33070100755672,1492073,1944,93.0,53.0
354,Jharkhand,Dhanbad,86.40372924901185,23.854509090909097,2684487,11568,91.0,64.0
362,Jharkhand,Dumka,87.27662450229711,24.275006125574265,1321442,1193,98.0,51.0
346,Jharkhand,Garhwa,83.68664265536722,24.082114689265527,1322784,565,94.0,49.0
349,Jharkhand,Giridih,86.08710915619386,24.30578509874329,2445474,1944,94.0,51.0
351,Jharkhand,Godda,87.2941735483871,24.8189,1313551,874,94.0,46.0
366,Jharkhand,Gumla,84.55056787479396,23.078532948929148,1025213,831,99.0,55.0
363,Jharkhand,Jamtara,86.95325080091534,23.97873318077801,791042,808,95.0,54.0
359,Jharkhand,Latehar,84.48298743362837,23.72511185840708,726978,340,97.0,48.0
356,Jharkhand,Lohardaga,84.6605169064748,23.488796043165483,461790,351,99.0,56.0
353,Jharkhand,Pakur,87.69691969178076,24.57260428082189,900422,328,99.0,39.0
358,Jharkhand,Palamu,84.20310842824594,24.196925968109337,1939869,2155,93.0,53.0
364,Jharkhand,Ranchi,85.31781937244203,23.184235061391547,2914253,22538,95.0,66.0
352,Jharkhand,Sahibganj,87.68264097938142,24.93667989690721,1150567,591,95.0,42.0
367,Jharkhand,Simdega,84.59193691931536,22.608760391198054,599578,423,100.0,57.0
556,Karnataka,Bagalkot,75.64526070853468,16.15860676328503,1889752,3745,99.0,59.0
583,Karnataka,Bangalore Rural,77.47369314775169,12.936827087794448,990923,3729,95.0,70.0
555,Karnataka,Belgaum,74.72329042357275,16.16107219152853,4779661,17560,97.0,64.0
565,Karnataka,Bellary,76.47228471074374,15.074377548209377,2452595,9626,98.0,58.0
558,Karnataka,Bidar,77.19459961538459,17.950361730769224,1703300,3971,96.0,61.0
417,Karnataka,Bijapur,75.95909166666665,16.84015316666667,255230,117,98.0,34.0
557,Karnataka,Bijapur,75.95909166666665,16.84015316666667,2177331,4987,96.0,57.0
570,Karnataka,Chikmagalur,75.67626502311249,13.425288289676422,1137961,4510,101.0,72.0
566,Karnataka,Chitradurga,76.57821957236843,14.29102220394736,1659456,5711,97.0,66.0
567,Karnataka,Davanagere,75.91723841166937,14.330414586709884,1945497,7320,97.0,67.0
562,Karnataka,Dharwad,75.13831264108359,15.343831376975173,1847023,15013,97.0,70.0
561,Karnataka,Gadag,75.64861302752298,15.507128256880746,1064570,3373,98.0,66.0
579,Karnataka,Gulbarga,76.87503850385033,17.070459515951594,2566326,9752,97.0,56.0
574,Karnataka,Hassan,76.11049549999997,12.945098749999998,1776421,4851,101.0,69.0
564,Karnataka,Haveri,75.3961230607966,14.737582809224318,1597668,2456,95.0,68.0
576,Karnataka,Kodagu,75.79336595744688,12.39684468085106,554519,3308,102.0,74.0
581,Karnataka,Kolar,78.01376947743476,13.312799881235172,1536401,5051,98.0,66.0
560,Karnataka,Koppal,76.1617048598131,15.651253271028034,1389920,2135,99.0,58.0
573,Karnataka,Mandya,76.81570098522172,12.574901806239744,1805769,3367,100.0,64.0
577,Karnataka,Mysore,76.52881802853437,12.248100259403367,3001127,28397,99.0,65.0
559,Karnataka,Raichur,76.87368606194688,16.050795353982295,1928812,5200,100.0,51.0
568,Karnataka,Shimoga,75.17882078103197,14.063845885634592,1752753,8791,100.0,72.0
571,Karnataka,Tumkur,77.02297966260545,13.592467760074973,2678980,7971,98.0,68.0
569,Karnataka,Udupi,74.72009990316337,13.450404228534568,1177361,9070,109.0,79.0
598,Kerala,Alappuzha,76.38010796263319,9.542602965599087,2127789,28842,110.0,87.0
595,Kerala,Ernakulam,76.26957729035381,10.004879301987431,3282388,88737,103.0,87.0
596,Kerala,Idukki,77.04586641566264,9.80480963855423,1108974,8250,101.0,83.0
589,Kerala,Kannur,75.35209891725934,11.941523076923056,2523003,32653,114.0,85.0
588,Kerala,Kasaragod,75.07768497134369,12.33310309912974,1307375,10378,108.0,79.0
600,Kerala,Kollam,76.6360775852431,8.929388820570157,2635375,31542,111.0,85.0
597,Kerala,Kottayam,76.46059673302705,9.643701174068417,1974551,37849,104.0,89.0
591,Kerala,Kozhikode,75.71158720159153,11.392924270557026,3086293,36791,110.0,85.0
592,Kerala,Malappuram,75.93910775606876,10.97329875666072,4112920,27909,110.0,81.0
593,Kerala,Palakkad,76.49980490693744,10.784926903553291,2809934,27162,107.0,80.0
601,Kerala,Thiruvananthapuram,76.88711502868073,8.537101759082221,3301427,71621,109.0,84.0
594,Kerala,Thrissur,76.12321940836945,10.458932647907687,3121200,56148,111.0,86.0
590,Kerala,Wayanad,76.07587007042254,11.715277464788736,817420,4712,103.0,79.0
461,Madhya Pradesh,Anuppur,81.86560000000007,23.18184220430107,749237,1290,98.0,58.0
459,Madhya Pradesh,Ashoknagar,77.82974493927134,24.63098846153845,845071,619,90.0,56.0
457,Madhya Pradesh,Balaghat,80.42170053380796,21.80020720640569,1701698,1712,102.0,67.0
441,Madhya Pradesh,Barwani,74.91004719710673,21.702135714285724,1385881,1158,98.0,40.0
447,Madhya Pradesh,Betul,77.7873428189117,21.964626315789477,1575362,2109,97.0,60.0
420,Madhya Pradesh,Bhind,78.7618324287653,26.35951126187245,1703005,1166,84.0,64.0
444,Madhya Pradesh,Bhopal,77.39246623093679,23.480726143790854,2371061,40788,92.0,70.0
467,Madhya Pradesh,Burhanpur,76.24460478589425,21.364567254408065,757847,986,95.0,54.0
425,Madhya Pradesh,Chhatarpur,79.56449299191374,24.813637376460004,1762375,1880,88.0,54.0
455,Madhya Pradesh,Chhindwara,78.76413136439254,22.227966971713823,2090922,3588,96.0,62.0
428,Madhya Pradesh,Damoh,79.47049303482588,23.76624407960196,1264219,1432,91.0,59.0
422,Madhya Pradesh,Datia,78.63916571428574,25.90226439560441,786754,616,87.0,62.0
437,Madhya Pradesh,Dewas,76.46088805970157,22.7851110021322,1563715,3518,94.0,59.0
438,Madhya Pradesh,Dhar,75.1105620736698,22.572681718963157,2185793,2388,96.0,49.0
453,Madhya Pradesh,Dindori,81.04332966714911,22.83738437047757,704524,554,100.0,54.0
458,Madhya Pradesh,Guna,77.2235895968791,24.49043927178156,1241519,2482,91.0,53.0
421,Madhya Pradesh,Gwalior,78.12782433035713,26.04074441964285,2032036,15779,86.0,67.0
448,Madhya Pradesh,Harda,77.07022571819435,22.227659781121783,570465,986,93.0,62.0
449,Madhya Pradesh,Hoshangabad,78.02168094841929,22.595268801996703,1241350,2871,91.0,65.0
439,Madhya Pradesh,Indore,75.9133801324502,22.680265752128648,3276697,48691,93.0,70.0
451,Madhya Pradesh,Jabalpur,79.98328754716981,23.18525572327043,2463289,20443,93.0,71.0
464,Madhya Pradesh,Jhabua,74.40921616766468,22.419578015397768,1025048,744,99.0,34.0
450,Madhya Pradesh,Katni,80.33819665871127,23.724416229116937,1292042,2179,95.0,61.0
454,Madhya Pradesh,Mandla,80.38600543633753,22.70348712446353,1054905,912,101.0,57.0
433,Madhya Pradesh,Mandsaur,75.43588667736759,24.19278764044944,1340411,2324,96.0,62.0
419,Madhya Pradesh,Morena,77.88447341389724,26.37313504531724,1965970,1781,84.0,60.0
432,Madhya Pradesh,Neemuch,75.06608186666664,24.70311893333336,826067,1945,95.0,62.0
426,Madhya Pradesh,Panna,80.21133001158752,24.451325840092657,1016520,653,91.0,54.0
446,Madhya Pradesh,Raisen,78.16305495923909,23.292518206521724,1331597,1141,90.0,62.0
442,Madhya Pradesh,Rajgarh,76.66431223922116,23.785499026425583,1545814,1611,96.0,52.0
434,Madhya Pradesh,Ratlam,75.14895782122909,23.503562290502792,1455069,3644,97.0,57.0
430,Madhya Pradesh,Rewa,81.57572465057183,24.861184625158856,2365106,3406,93.0,61.0
427,Madhya Pradesh,Sagar,78.71940357771273,23.800318709677374,2378458,4546,89.0,65.0
429,Madhya Pradesh,Satna,80.75547048710598,24.62777621776502,2228935,3754,93.0,62.0
445,Madhya Pradesh,Sehore,77.06780202883085,22.9297199679658,1311332,1566,92.0,60.0
456,Madhya Pradesh,Seoni,79.66053863928111,22.33230487804874,1379131,1182,98.0,63.0
460,Madhya Pradesh,Shahdol,81.4596831828442,23.44859864559819,1066063,1733,97.0,57.0
436,Madhya Pradesh,Shajapur,76.33555181268885,23.566620317220547,1512681,1382,94.0,59.0
418,Madhya Pradesh,Sheopur,77.16911116838484,25.78014810996563,687861,273,90.0,48.0
423,Madhya Pradesh,Shivpuri,77.74861600810549,25.37802451874367,1726050,1852,88.0,52.0
462,Madhya Pradesh,Sidhi,82.1053783359498,24.17547189952905,1127033,837,96.0,53.0
424,Madhya Pradesh,Tikamgarh,78.89357064846428,25.14099852104666,1445166,1090,90.0,52.0
435,Madhya Pradesh,Ujjain,75.80383717647058,23.319288862745065,1986864,7501,96.0,62.0
431,Madhya Pradesh,Umaria,80.90879477477475,23.59601063063061,644758,839,95.0,55.0
443,Madhya Pradesh,Vidisha,77.9013507604563,23.82838307984792,1458875,1926,90.0,59.0
501,Maharashtra,Akola,77.12122320359276,20.746310479041902,1813906,6163,95.0,78.0
503,Maharashtra,Amravati,77.67583503184723,21.16520991810736,2888445,9438,95.0,78.0
506,Maharashtra,Bhandara,80.10950199637024,21.211792649727748,1200334,2932,98.0,75.0
523,Maharashtra,Bid,75.69319706477731,18.952353340080982,2585049,5614,92.0,66.0
500,Maharashtra,Buldana,76.39017880364096,20.56680611183355,2586258,4767,93.0,73.0
509,Maharashtra,Chandrapur,79.31556380471388,20.095609090909075,2204307,8239,96.0,72.0
498,Maharashtra,Dhule,74.58719071837263,21.274018690400517,2050862,6065,95.0,63.0
507,Maharashtra,Gondiya,80.17522698598128,21.225008411214997,1322507,2866,100.0,76.0
512,Maharashtra,Hingoli,77.09239412780653,19.59525302245251,1177345,1221,94.0,67.0
499,Maharashtra,Jalgaon,75.55140421810695,20.8828943415638,4229917,14297,92.0,68.0
514,Maharashtra,Jalna,75.98473607242339,19.984612534818933,1959046,3791,94.0,61.0
530,Maharashtra,Kolhapur,74.12897150793648,16.44881301587301,3876001,22269,96.0,73.0
524,Maharashtra,Latur,76.75812607802874,18.348687268993856,2454196,6217,93.0,67.0
505,Maharashtra,Nagpur,79.02166176470584,21.196556862745105,4653570,57964,95.0,79.0
511,Maharashtra,Nanded,77.6829048951049,19.209316983017,3361292,7548,94.0,65.0
497,Maharashtra,Nandurbar,74.32638757443429,21.523175625248147,1648295,2579,98.0,55.0
516,Maharashtra,Nashik,74.03824168316828,20.266912871287143,6107187,45039,93.0,71.0
525,Maharashtra,Osmanabad,75.99495575313809,18.19459456066944,1657576,3209,92.0,69.0
513,Maharashtra,Parbhani,76.70163338870431,19.31032425249168,1836086,3982,95.0,63.0
521,Maharashtra,Pune,74.12922881632647,18.51696171428573,9429408,235018,91.0,76.0
528,Maharashtra,Ratnagiri,73.25725893866404,17.210195070127703,1615069,7752,112.0,74.0
531,Maharashtra,Sangli,74.70713822937628,17.154930181086502,2822143,13212,97.0,73.0
527,Maharashtra,Satara,74.18052064102558,17.6737908974359,3003741,14093,99.0,74.0
529,Maharashtra,Sindhudurg,73.51329008172343,16.170948049777163,849651,3517,104.0,78.0
526,Maharashtra,Solapur,75.42394823609216,17.837357937584812,4317756,15145,94.0,67.0
517,Maharashtra,Thane,72.79882742564581,19.698767747440264,11060148,256170,89.0,74.0
504,Maharashtra,Wardha,78.57259105691062,20.80743024390242,1300774,4313,95.0,78.0
502,Maharashtra,Washim,77.25502394366208,20.282282394366213,1197160,1875,93.0,73.0
510,Maharashtra,Yavatmal,78.05326371760479,20.04258346738159,2772348,6094,95.0,73.0
275,Manipur,Bishnupur,93.8246236024845,24.50712111801243,237399,676,100.0,66.0
280,Manipur,Chandel,94.09443844155844,24.2635812987013,144182,184,93.0,63.0
274,Manipur,Churachandpur,93.38671506024085,24.30309718875504,274143,837,97.0,71.0
272,Manipur,Senapati,94.03366234413956,25.08465586034914,479148,256,94.0,55.0
273,Manipur,Tamenglong,93.49450740072204,24.98312942238265,140651,125,94.0,60.0
276,Manipur,Thoubal,93.97959893617023,24.545392553191498,422168,880,100.0,64.0
279,Manipur,Ukhrul,94.44129566929138,25.05900314960629,183998,276,94.0,71.0
294,Meghalaya,East Garo Hills,90.64684924924916,25.82728228228228,317917,288,97.0,60.0
298,Meghalaya,East Khasi Hills,91.75922519841272,25.303763888888884,825922,5032,101.0,70.0
299,Meghalaya,Jaintia Hills,92.37608160136298,25.33959557069844,395124,510,101.0,47.0
295,Meghalaya,South Garo Hills,90.64560349127176,25.240568578553614,142334,179,95.0,58.0
293,Meghalaya,West Garo Hills,90.03709947089942,25.495285185185185,643291,1630,98.0,56.0
296,Meghalaya,West Khasi Hills,91.25364542124538,25.500889926739926,383461,149,98.0,60.0
283,Mizoram,Aizawl,92.85359459459472,23.90781335453101,400309,4019,101.0,85.0
284,Mizoram,Champhai,93.24221799485862,23.54166580976866,125745,186,98.0,80.0
282,Mizoram,Kolasib,92.73470391304348,24.2020004347826,83955,367,96.0,78.0
287,Mizoram,Lawngtlai,92.66964156862753,22.36102843137253,117894,162,95.0,53.0
286,Mizoram,Lunglei,92.63512555425892,23.007717036172675,161428,482,95.0,75.0
281,Mizoram,Mamit,92.4330803833147,23.73852942502819,86364,90,93.0,70.0
288,Mizoram,Saiha,93.02827931034489,22.35744801061008,56574,168,98.0,75.0
285,Mizoram,Serchhip,92.914158496732,23.263864705882344,64937,131,98.0,84.0
265,Nagaland,Dimapur,93.75074057971014,25.814176811594223,378811,3303,92.0,73.0
270,Nagaland,Kohima,93.78600657596373,25.60311428571428,267988,1928,93.0,74.0
262,Nagaland,Mokokchung,94.522426006192,26.478911764705888,194622,537,93.0,82.0
261,Nagaland,Mon,95.03072988826828,26.69207374301676,250260,178,90.0,48.0
266,Nagaland,Phek,94.56814563758392,25.63272986577182,163418,170,95.0,65.0
267,Nagaland,Tuensang,94.85809880715708,26.21104453280316,196596,155,93.0,60.0
264,Nagaland,Wokha,94.1990815181518,26.202611551155112,166343,198,97.0,77.0
263,Nagaland,Zunheboto,94.50026666666668,26.028178205128206,140757,261,98.0,73.0
377,Orissa,Baleshwar,87.08085828011933,21.48570932311624,2320529,7370,96.0,70.0
378,Orissa,Bhadrak,86.81496204516931,20.95262735257214,1506337,2637,98.0,73.0
381,Orissa,Cuttack,85.7776810228802,20.407640646029623,2624470,15046,94.0,77.0
383,Orissa,Dhenkanal,85.53226836027711,20.79887159353349,1192811,1810,95.0,70.0
389,Orissa,Gajapati,84.14015091911759,19.121080882352945,577817,635,104.0,45.0
388,Orissa,Ganjam,84.80297710437702,19.2632617564534,3529031,9049,98.0,63.0
371,Orissa,Jharsuguda,83.93581682242987,21.827058566978184,579505,2498,95.0,70.0
395,Orissa,Kalahandi,83.1124043814433,19.784253092783523,1576869,1953,100.0,51.0
390,Orissa,Kandhamal,84.02216352765326,20.092878624813142,733110,768,104.0,55.0
379,Orissa,Kendrapara,86.83763247572003,20.606319815982264,1440361,1628,101.0,76.0
386,Orissa,Khordha,85.52234834123229,20.054162322274863,2251673,35701,93.0,78.0
398,Orissa,Koraput,82.81278469846964,18.82627794779476,1379647,3988,103.0,41.0
399,Orissa,Malkangiri,81.98293636363628,18.25227930367506,613192,448,102.0,40.0
376,Orissa,Mayurbhanj,86.4030408052231,21.897621545157754,2519738,2950,101.0,54.0
385,Orissa,Nayagarh,85.05614700460825,20.192895622119817,962789,1163,92.0,71.0
394,Orissa,Nuapada,82.59152536585364,20.471309512195116,610382,757,102.0,49.0
387,Orissa,Puri,85.86698989898981,19.83509174603177,1698730,3416,96.0,76.0
396,Orissa,Rayagada,83.45860120361095,19.292840020060204,967911,1553,105.0,42.0
372,Orissa,Sambalpur,84.34958483245157,21.515752380952385,1041099,5231,98.0,68.0
374,Orissa,Sundargarh,84.50524819277099,22.06354819277107,2093437,12787,97.0,64.0
637,Puducherry,Karaikal,79.82369793621002,10.876161726078813,200222,1868,105.0,77.0
636,Puducherry,Mahe,75.28275021570326,12.006420793787758,41816,574,118.0,87.0
634,Puducherry,Yanam,82.26187304347832,16.707695652173904,55626,207,104.0,71.0
49,Punjab,Amritsar,74.79883856502238,31.548679820627772,2490656,29961,89.0,68.0
46,Punjab,Bathinda,75.05685898004438,30.190524611973352,1388525,11284,87.0,61.0
45,Punjab,Faridkot,74.79751553784862,30.591187250996025,617508,4348,89.0,62.0
40,Punjab,Fatehgarh Sahib,76.36208394736842,30.64290947368421,600163,5138,87.0,71.0
43,Punjab,Firozpur,74.40245732394365,30.63407535211269,2029074,10042,89.0,60.0
35,Punjab,Gurdaspur,75.3204064393939,32.04283371212125,2298323,14428,90.0,71.0
38,Punjab,Hoshiarpur,75.8469857442349,31.55157169811319,1586625,13747,96.0,76.0
37,Punjab,Jalandhar,75.54400350515463,31.250336907216507,2193590,39082,92.0,74.0
36,Punjab,Kapurthala,75.47641165644177,31.336592638036837,815168,9732,91.0,71.0
41,Punjab,Ludhiana,75.83110851528383,30.76596397379912,3498739,58589,87.0,73.0
47,Punjab,Mansa,75.4304922857143,29.919547714285724,769751,2673,88.0,55.0
42,Punjab,Moga,75.1600845117845,30.756540067340065,995746,7897,89.0,63.0
44,Punjab,Muktsar,74.5518747747748,30.31243303303303,901896,4571,90.0,58.0
48,Punjab,Patiala,76.27505893949697,30.214540380693364,1895686,24274,89.0,67.0
51,Punjab,Rupnagar,76.53743500967126,30.910937330754347,684627,6600,92.0,73.0
53,Punjab,Sangrur,75.89437014178496,30.185045204336895,1655169,10736,89.0,61.0
119,Rajasthan,Ajmer,74.6990419191919,26.199300378787903,2583052,13499,95.0,59.0
104,Rajasthan,Alwar,76.65359630562563,27.55271738035265,3674179,9750,89.0,59.0
125,Rajasthan,Banswara,74.44246868131869,23.453642032967014,1797485,2324,98.0,46.0
128,Rajasthan,Baran,76.86210651828291,24.98023243243244,1222755,1363,93.0,57.0
115,Rajasthan,Barmer,71.50297126436782,25.77070908045978,2603751,2766,90.0,46.0
105,Rajasthan,Bharatpur,77.21752077244258,27.32411858037578,2548462,4179,88.0,58.0
122,Rajasthan,Bhilwara,74.63947595628417,25.45119767759564,2408523,6207,97.0,52.0
101,Rajasthan,Bikaner,73.26943322981371,28.12489068322981,2363937,7607,91.0,54.0
121,Rajasthan,Bundi,75.79984074074079,25.48580716049379,1110906,1392,92.0,53.0
126,Rajasthan,Chittaurgarh,74.80010997846382,24.631623761665463,1544338,4941,97.0,53.0
102,Rajasthan,Churu,74.65846427038629,28.29330375536484,2039547,2577,94.0,56.0
109,Rajasthan,Dausa,76.57342097264443,26.91234817629181,1634409,1719,91.0,57.0
106,Rajasthan,Dhaulpur,77.74476219780222,26.72397054945053,1206516,1330,85.0,57.0
124,Rajasthan,Dungarpur,73.84765641025645,23.75104807692308,1388552,1477,99.0,49.0
99,Rajasthan,Ganganagar,73.56192303262948,29.256785412667963,1969168,6295,89.0,61.0
100,Rajasthan,Hanumangarh,74.74632573289902,29.1813351791531,1774692,3360,91.0,58.0
110,Rajasthan,Jaipur,75.77117286012533,27.033459290187885,6626178,76565,91.0,65.0
114,Rajasthan,Jaisalmer,71.18371877346682,26.86900838548185,669919,754,85.0,46.0
116,Rajasthan,Jalor,72.18647261724662,25.07578093797277,1828730,1585,95.0,45.0
129,Rajasthan,Jhalawar,76.11242891705065,24.24725541474657,1411129,1750,95.0,52.0
103,Rajasthan,Jhunjhunun,75.52840893970894,28.13517401247401,2137045,4828,95.0,64.0
113,Rajasthan,Jodhpur,73.00450847457628,26.678460838536967,3687165,19335,92.0,55.0
107,Rajasthan,Karauli,76.96081818181815,26.51901555555556,1458248,1059,86.0,55.0
127,Rajasthan,Kota,76.18618928000001,25.175718080000014,1951014,12843,91.0,67.0
112,Rajasthan,Nagaur,74.14215667001012,27.07862016048146,3307743,4449,95.0,53.0
118,Rajasthan,Pali,73.55285640766907,25.80490393541874,2037573,4043,99.0,53.0
123,Rajasthan,Rajsamand,73.96570215946844,25.24894767441859,1156597,1989,99.0,54.0
108,Rajasthan,Sawai Madhopur,76.4219283891548,26.251081180223288,1335551,1887,90.0,56.0
111,Rajasthan,Sikar,75.29317422839503,27.64644058641976,2677333,5647,95.0,62.0
117,Rajasthan,Sirohi,72.75309131578943,24.7976905263158,1036346,2146,94.0,46.0
120,Rajasthan,Tonk,75.79192216427637,26.153935071707927,1421326,1908,95.0,53.0
130,Rajasthan,Udaipur,73.84029839743584,24.44076752136749,3068420,14211,96.0,52.0
93,Sikkim,East,88.74908392156858,27.29600352941175,1709346,80037,88.0,79.0
616,Tamil Nadu,Ariyalur,79.22249643916912,11.190514836795256,754894,1749,101.0,64.0
603,Tamil Nadu,Chennai,80.28139151846806,13.058098905608748,4646732,217368,99.0,81.0
632,Tamil Nadu,Coimbatore,77.07619012178621,10.871376995940452,3458045,63273,100.0,76.0
617,Tamil Nadu,Cuddalore,79.63002365371497,11.57587300613498,2605914,15396,99.0,70.0
630,Tamil Nadu,Dharmapuri,78.11509813333339,12.300141200000006,1506843,3651,95.0,61.0
612,Tamil Nadu,Dindigul,77.78011279554937,10.377801390820574,2159775,9155,100.0,69.0
610,Tamil Nadu,Erode,77.42034334862392,11.267012155963302,2251744,18604,99.0,66.0
604,Tamil Nadu,Kancheepuram,80.08820360135913,12.496424756511884,3998252,100322,99.0,75.0
629,Tamil Nadu,Kanniyakumari,77.32053064053538,8.183466300191206,1870374,15673,102.0,83.0
613,Tamil Nadu,Karur,78.08749686847604,10.79532776617955,1064493,4915,102.0,68.0
623,Tamil Nadu,Madurai,78.01366033333332,9.904313833333331,3038252,34097,99.0,75.0
618,Tamil Nadu,Nagapattinam,79.79437299431483,10.789468161718286,1616450,5585,103.0,75.0
609,Tamil Nadu,Namakkal,78.14624841437633,11.33766638477801,1726601,8960,99.0,68.0
615,Tamil Nadu,Perambalur,78.86034011799416,11.260137758112096,565223,1507,100.0,66.0
621,Tamil Nadu,Pudukkottai,79.05444484265728,10.130514816433578,1618345,4494,101.0,69.0
626,Tamil Nadu,Ramanathapuram,78.99185362412462,9.31286995153476,1353445,5172,98.0,72.0
608,Tamil Nadu,Salem,78.2478257978723,11.629324202127655,3482056,20660,95.0,66.0
622,Tamil Nadu,Sivaganga,78.56535729032255,9.960306580645158,1339101,5773,100.0,72.0
620,Tamil Nadu,Thanjavur,79.3194869107745,10.387692255892237,2405890,13495,103.0,74.0
624,Tamil Nadu,Theni,77.43458833333332,9.924066666666668,1245899,4667,99.0,70.0
602,Tamil Nadu,Thiruvallur,80.19724702864492,13.275858101752885,3728104,75634,99.0,75.0
619,Tamil Nadu,Thiruvarur,79.60322893959727,10.368927409395978,1264277,4416,102.0,75.0
606,Tamil Nadu,Tiruvannamalai,79.23265631578953,12.419318947368414,2464875,6445,99.0,66.0
605,Tamil Nadu,Vellore,79.02643283582084,12.784882632293078,3936331,20623,101.0,70.0
625,Tamil Nadu,Virudhunagar,77.87641469194315,9.468872195892564,1942288,10219,101.0,72.0
291,Tripura,Dhalai,91.94654283088232,23.781360477941163,378230,273,94.0,73.0
292,Tripura,North Tripura,92.17842538226292,24.121739755351683,693947,997,97.0,75.0
290,Tripura,South Tripura,91.6065807585568,23.211874098057383,876001,948,96.0,74.0
289,Tripura,West Tripura,91.41310788863107,23.780166241299337,1725739,6394,96.0,79.0
146,Uttar Pradesh,Agra,78.05278291517321,26.99512974910393,4418797,27183,87.0,61.0
143,Uttar Pradesh,Aligarh,78.00146831119557,27.93748576850093,3673889,13634,88.0,57.0
175,Uttar Pradesh,Allahabad,82.05172446982063,25.392038662316445,5954391,24122,90.0,62.0
178,Uttar Pradesh,Ambedkar Nagar,82.68282142857147,26.39119025974028,2397888,2509,98.0,62.0
162,Uttar Pradesh,Auraiya,79.42637057356607,26.66892394014961,1379545,2404,86.0,67.0
191,Uttar Pradesh,Azamgarh,83.01220251256285,26.008290954773837,4613913,6652,102.0,60.0
139,Uttar Pradesh,Baghpat,77.30266300000001,29.045793499999988,1303048,2989,86.0,61.0
180,Uttar Pradesh,Bahraich,81.46779783237004,27.691776300578027,3487731,2681,89.0,40.0
193,Uttar Pradesh,Ballia,84.03651978723408,25.86075638297873,3239774,4672,94.0,61.0
182,Uttar Pradesh,Balrampur,82.47158326180256,27.449076537911324,2148665,1551,93.0,40.0
170,Uttar Pradesh,Banda,80.52487391304344,25.351885902503284,1799410,1655,86.0,56.0
176,Uttar Pradesh,Bara Banki,81.35762350597606,26.922777025232424,3260699,3159,91.0,52.0
150,Uttar Pradesh,Bareilly,79.43187072368416,28.51101940789474,4448359,15164,89.0,49.0
185,Uttar Pradesh,Basti,82.69790590909092,26.833880454545447,2464464,3423,96.0,57.0
134,Uttar Pradesh,Bijnor,78.45098815489754,29.313974259681096,3682713,7303,92.0,58.0
142,Uttar Pradesh,Bulandshahr,78.01082758620684,28.34875862068968,3499171,7865,90.0,58.0
196,Uttar Pradesh,Chandauli,83.25307062634984,25.1180859611231,1952756,3492,92.0,60.0
171,Uttar Pradesh,Chitrakoot,81.07666087551297,25.159924623803,991730,827,88.0,54.0
190,Uttar Pradesh,Deoria,83.8244070686071,26.42218856548857,3100946,4469,102.0,60.0
201,Uttar Pradesh,Etah,78.70021858407083,27.591155309734443,1774480,2635,87.0,59.0
161,Uttar Pradesh,Etawah,79.07621806282728,26.78817670157068,1581810,2964,87.0,67.0
177,Uttar Pradesh,Faizabad,82.00783530864202,26.60589185185181,2470996,4746,96.0,59.0
159,Uttar Pradesh,Farrukhabad,79.4406284574468,27.45063297872342,1885204,2624,87.0,58.0
172,Uttar Pradesh,Fatehpur,80.85416203090509,25.8374362030905,2632733,3385,90.0,57.0
147,Uttar Pradesh,Firozabad,78.42660624999998,27.20963993055552,2498156,5834,88.0,61.0
141,Uttar Pradesh,Gautam Buddha Nagar,77.52462467532465,28.393311038961038,1648115,53181,85.0,68.0
140,Uttar Pradesh,Ghaziabad,77.67441879350343,28.74997308584685,4681645,78116,88.0,67.0
195,Uttar Pradesh,Ghazipur,83.5360854578097,25.624724775583484,3620268,5309,95.0,61.0
183,Uttar Pradesh,Gonda,82.0226888024882,27.157215552099505,3433919,4313,92.0,49.0
188,Uttar Pradesh,Gorakhpur,83.3549560377358,26.63315886792452,4440895,14597,95.0,61.0
155,Uttar Pradesh,Hardoi,80.26411767676768,27.337409090909137,4092845,3845,87.0,54.0
165,Uttar Pradesh,Jalaun,79.36686911314993,26.067954587155988,1689974,2217,87.0,64.0
194,Uttar Pradesh,Jaunpur,82.54315351934063,25.70141280913127,4494204,8002,102.0,61.0
166,Uttar Pradesh,Jhansi,78.89954580536917,25.45581535234902,1998603,8517,89.0,65.0
137,Uttar Pradesh,Jyotiba Phule Nagar,78.39009365482241,28.870498984771597,1840221,2825,91.0,53.0
160,Uttar Pradesh,Kannauj,79.64437940379408,26.993988617886185,1656616,2488,88.0,61.0
163,Uttar Pradesh,Kanpur Dehat,79.98710083056478,26.43047641196011,1796184,2682,86.0,65.0
174,Uttar Pradesh,Kaushambi,81.41811282051287,25.53587532051282,1599596,1503,91.0,51.0
189,Uttar Pradesh,Kushinagar,83.92261542461007,26.892530675909864,3564544,3486,96.0,55.0
167,Uttar Pradesh,Lalitpur,78.60082330508473,24.58877161016945,1221592,1079,91.0,52.0
157,Uttar Pradesh,Lucknow,80.89706026871404,26.838233589251463,4589838,68506,92.0,68.0
169,Uttar Pradesh,Mahoba,79.67863003472216,25.34529670138888,875958,1316,88.0,56.0
148,Uttar Pradesh,Mainpuri,79.03501851015807,27.17386862302482,1868529,2642,88.0,64.0
145,Uttar Pradesh,Mathura,77.62153416856502,27.59390432801821,2547184,8726,86.0,59.0
192,Uttar Pradesh,Mau,83.50582654028433,26.01082203791469,2205968,2656,98.0,62.0
138,Uttar Pradesh,Meerut,77.80611005586593,29.02957625698323,3443689,23717,89.0,62.0
199,Uttar Pradesh,Mirzapur,82.60126628571429,25.10207959183675,2496970,4447,90.0,57.0
135,Uttar Pradesh,Moradabad,78.73580193423597,28.851770406189537,4772006,11690,91.0,47.0
133,Uttar Pradesh,Muzaffarnagar,77.64017847866423,29.470507977736563,4143512,10077,89.0,58.0
151,Uttar Pradesh,Pilibhit,79.90103974175037,28.52024175035868,2031007,2870,89.0,52.0
131,Uttar Pradesh,Pratapgarh,81.93530048780492,25.864842731707316,867848,716,98.0,46.0
173,Uttar Pradesh,Pratapgarh,81.93530048780492,25.864842731707316,3209141,5149,100.0,60.0
158,Uttar Pradesh,Rae Bareli,81.22260463378181,26.253902840059787,3405559,5184,94.0,58.0
136,Uttar Pradesh,Rampur,79.10977333333337,28.83244727272725,2335819,3847,91.0,45.0
132,Uttar Pradesh,Saharanpur,77.59905147826095,30.03381165217392,3466382,9699,89.0,60.0
186,Uttar Pradesh,Sant Kabir Nagar,83.0387764344262,26.791596516393444,1715183,2031,97.0,56.0
152,Uttar Pradesh,Shahjahanpur,79.8302275324675,27.991389350649328,3006538,3889,87.0,50.0
154,Uttar Pradesh,Sitapur,80.85288881199547,27.501995963091108,4483992,3874,89.0,51.0
200,Uttar Pradesh,Sonbhadra,83.06816324951639,24.46693268858798,1862559,5149,92.0,53.0
179,Uttar Pradesh,Sultanpur,82.05710456790123,26.2846386419753,3797117,5956,98.0,59.0
156,Uttar Pradesh,Unnao,80.636773292868,26.63163990895297,3108367,3476,91.0,57.0
197,Uttar Pradesh,Varanasi,82.82529666666672,25.36057088888889,3676841,19214,91.0,65.0
64,Uttaranchal,Almora,79.50165064267351,29.683532133676103,622506,1830,114.0,70.0
63,Uttaranchal,Bageshwar,79.83954354354357,29.98703393393397,259898,435,109.0,69.0
57,Uttaranchal,Chamoli,79.56281095541402,30.58338611464965,391605,899,102.0,72.0
65,Uttaranchal,Champawat,80.07720212121217,29.29142393939393,259648,548,98.0,68.0
62,Uttaranchal,Pithoragarh,80.34229230769236,30.14720631868129,483439,1344,102.0,71.0
59,Uttaranchal,Tehri Garhwal,78.48783792650917,30.463700918635173,618931,1366,108.0,66.0
67,Uttaranchal,Udham Singh Nagar,79.45629004524895,29.02779577677222,1648902,7883,92.0,63.0
56,Uttaranchal,Uttarkashi,78.56880615384617,30.968958552036234,330086,602,96.0,65.0
339,West Bengal,Bankura,87.12640053571437,23.081280892857155,3596674,4273,96.0,62.0
335,West Bengal,Barddhaman,87.8150581111111,23.444453888888884,7717563,32323,95.0,68.0
334,West Bengal,Birbhum,87.65153089201888,24.06389342723,3502404,5210,96.0,62.0
331,West Bengal,Dakshin Dinajpur,88.69821679819614,25.342094363021435,1676276,2518,96.0,65.0
327,West Bengal,Darjiling,88.33145067024122,26.839619571045585,1846823,10943,97.0,71.0
341,West Bengal,Haora,87.99421176968654,22.401674174428507,4850029,30751,94.0,74.0
338,West Bengal,Hugli,88.00010264705891,22.87929264705881,5519145,31725,96.0,74.0
328,West Bengal,Jalpaiguri,89.04154375000003,26.62642031250004,3872846,9322,95.0,65.0
342,West Bengal,Kolkata,88.3527648148148,22.550581481481483,4496694,136618,91.0,80.0
332,West Bengal,Maldah,88.17191684549356,25.08026802575105,3988845,5357,94.0,52.0
333,West Bengal,Murshidabad,88.16816860465121,24.25950655391121,7103807,7951,96.0,57.0
336,West Bengal,Nadia,88.58293034547152,23.56410971055088,5167600,12787,95.0,67.0
340,West Bengal,Puruliya,86.3968532876713,23.254192328767108,2930115,3551,96.0,55.0
330,West Bengal,Uttar Dinajpur,88.23595232216337,26.044619165196977,3007134,2883,94.0,50.0
